<?xml version="1.0" encoding="UTF-8"?>
<RECORDS>
  <DATA_RECORD>
    <pid>146612179</pid>
    <pname>Дзіцячы сад №34</pname>
    <pcategory>kindergarten</pcategory>
    <platitude>55.5390834275</platitude>
    <plongitude>28.6235719789</plongitude>
    <pratings>1,1,3,1,4,1,5,3,1,2</pratings>
  </DATA_RECORD>
  <DATA_RECORD>
    <pid>502332310</pid>
    <pname>Interchange</pname>
    <pcategory>bus-stop</pcategory>
    <platitude>52.9798188991</platitude>
    <plongitude>-0.0213466</plongitude>
    <pratings>1,1,3,1,4,1,5,3,1,2</pratings>
  </DATA_RECORD>
  <DATA_RECORD>
    <pid>77034997</pid>
    <pname>Piscine des Ulis</pname>
    <pcategory>sports-centre</pcategory>
    <platitude>48.6789568836</platitude>
    <plongitude>2.1683283974</plongitude>
    <pratings>1,1,3,1,4,1,5,3,1,2</pratings>
  </DATA_RECORD>
  <DATA_RECORD>
    <pid>534853645</pid>
    <pname>Gsteig - Höhe Reusch</pname>
    <pcategory>bus-stop</pcategory>
    <platitude>46.3746120003</platitude>
    <plongitude>7.2474098</plongitude>
    <pratings>1,1,3,1,4,1,5,3,1,2</pratings>
  </DATA_RECORD>
  <DATA_RECORD>
    <pid>1228471217</pid>
    <pname>Simcoe NB @ First</pname>
    <pcategory>bus-stop</pcategory>
    <platitude>43.8839497005</platitude>
    <plongitude>-78.8572901</plongitude>
    <pratings>1,1,3,1,4,1,5,3,1,2</pratings>
  </DATA_RECORD>
  <DATA_RECORD>
    <pid>4339563170</pid>
    <pname>Школа-інтернат</pname>
    <pcategory>bus-stop</pcategory>
    <platitude>50.5341634993</platitude>
    <plongitude>30.356356</plongitude>
    <pratings>1,1,3,1,4,1,5,3,1,2</pratings>
  </DATA_RECORD>
  <DATA_RECORD>
    <pid>6445166462</pid>
    <pname>သင်္ဘောနံ အခြေခံပညာမူလတန်းကျောင်း</pname>
    <pcategory>school</pcategory>
    <platitude>12.4152022996</platitude>
    <plongitude>99.1004165</plongitude>
    <pratings>1,1,3,1,4,1,5,3,1,2</pratings>
  </DATA_RECORD>
  <DATA_RECORD>
    <pid>1133754710</pid>
    <pname>Теремок</pname>
    <pcategory>kindergarten</pcategory>
    <platitude>56.6398433198</platitude>
    <plongitude>47.7768376889</plongitude>
    <pratings>1,1,3,1,4,1,5,3,1,2</pratings>
  </DATA_RECORD>
  <DATA_RECORD>
    <pid>919773574</pid>
    <pname>Bushnell Way Elementary School</pname>
    <pcategory>school</pcategory>
    <platitude>34.1024917658</platitude>
    <plongitude>-118.1893029587</plongitude>
    <pratings>1,1,3,1,4,1,5,3,1,2</pratings>
  </DATA_RECORD>
  <DATA_RECORD>
    <pid>10678123090</pid>
    <pname>芝中央小学校入口</pname>
    <pcategory>bus-stop</pcategory>
    <platitude>35.8402989997</platitude>
    <plongitude>139.6993402</plongitude>
    <pratings>1,1,3,1,4,1,5,3,1,2</pratings>
  </DATA_RECORD>
  <DATA_RECORD>
    <pid>4676512296</pid>
    <pname>Kaland</pname>
    <pcategory>bus-stop</pcategory>
    <platitude>60.2764430017</platitude>
    <plongitude>5.41677</plongitude>
    <pratings>1,1,3,1,4,1,5,3,1,2</pratings>
  </DATA_RECORD>
  <DATA_RECORD>
    <pid>10308320611</pid>
    <pname>Toprak Eczanesi</pname>
    <pcategory>pharmacy</pcategory>
    <platitude>37.8788718</platitude>
    <plongitude>32.4620154</plongitude>
    <pratings>1,1,3,1,4,1,5,3,1,2</pratings>
  </DATA_RECORD>
  <DATA_RECORD>
    <pid>5303130960</pid>
    <pname>Mavi Bulvar</pname>
    <pcategory>railway-station</pcategory>
    <platitude>37.0355306999</platitude>
    <plongitude>35.2879022</plongitude>
    <pratings>1,1,3,1,4,1,5,3,1,2</pratings>
  </DATA_RECORD>
  <DATA_RECORD>
    <pid>10219667125</pid>
    <pname>Gurvennou</pname>
    <pcategory>bus-stop</pcategory>
    <platitude>48.1129189999</platitude>
    <plongitude>-3.937719</plongitude>
    <pratings>1,1,3,1,4,1,5,3,1,2</pratings>
  </DATA_RECORD>
  <DATA_RECORD>
    <pid>4548281953</pid>
    <pname>Pharmacie Perrin</pname>
    <pcategory>pharmacy</pcategory>
    <platitude>47.2847568001</platitude>
    <plongitude>5.9674393</plongitude>
    <pratings>1,1,3,1,4,1,5,3,1,2</pratings>
  </DATA_RECORD>
  <DATA_RECORD>
    <pid>2883882703</pid>
    <pname>Ideal</pname>
    <pcategory>restaurant</pcategory>
    <platitude>41.5139500004</platitude>
    <plongitude>2.12544</plongitude>
    <pratings>1,1,3,1,4,1,5,3,1,2</pratings>
  </DATA_RECORD>
  <DATA_RECORD>
    <pid>61145880</pid>
    <pname>Audry Park</pname>
    <pcategory>park</pcategory>
    <platitude>36.704102365</platitude>
    <plongitude>-119.5792771672</plongitude>
    <pratings>1,1,3,1,4,1,5,3,1,2</pratings>
  </DATA_RECORD>
  <DATA_RECORD>
    <pid>169677650</pid>
    <pname>Meijer</pname>
    <pcategory>supermarket</pcategory>
    <platitude>39.2509994451</platitude>
    <plongitude>-84.6037959901</plongitude>
    <pratings>1,1,3,1,4,1,5,3,1,2</pratings>
  </DATA_RECORD>
  <DATA_RECORD>
    <pid>3089885246</pid>
    <pname>Sainte-Ode Route de l'Hôpital</pname>
    <pcategory>bus-stop</pcategory>
    <platitude>50.0612047994</platitude>
    <plongitude>5.5085755</plongitude>
    <pratings>1,1,3,1,4,1,5,3,1,2</pratings>
  </DATA_RECORD>
  <DATA_RECORD>
    <pid>1221980589</pid>
    <pname>الوحدة الصحية القهرة</pname>
    <pcategory>clinic</pcategory>
    <platitude>13.8431689998</platitude>
    <plongitude>44.808086</plongitude>
    <pratings>1,1,3,1,4,1,5,3,1,2</pratings>
  </DATA_RECORD>
  <DATA_RECORD>
    <pid>763255051</pid>
    <pname>parque Bellavista</pname>
    <pcategory>park</pcategory>
    <platitude>19.677984275</platitude>
    <plongitude>-99.2201999527</plongitude>
    <pratings>1,1,3,1,4,1,5,3,1,2</pratings>
  </DATA_RECORD>
  <DATA_RECORD>
    <pid>750779643</pid>
    <pname>Pizza Hut</pname>
    <pcategory>restaurant</pcategory>
    <platitude>37.5803448139</platitude>
    <plongitude>-77.5164198807</plongitude>
    <pratings>1,1,3,1,4,1,5,3,1,2</pratings>
  </DATA_RECORD>
  <DATA_RECORD>
    <pid>9407969804</pid>
    <pname>Hollós Patika</pname>
    <pcategory>pharmacy</pcategory>
    <platitude>45.8508694004</platitude>
    <plongitude>18.2987378</plongitude>
    <pratings>1,1,3,1,4,1,5,3,1,2</pratings>
  </DATA_RECORD>
  <DATA_RECORD>
    <pid>10589372207</pid>
    <pname>Oxxo</pname>
    <pcategory>convenience-store</pcategory>
    <platitude>23.2506647004</platitude>
    <plongitude>-106.4549593</plongitude>
    <pratings>1,1,3,1,4,1,5,3,1,2</pratings>
  </DATA_RECORD>
  <DATA_RECORD>
    <pid>8635488844</pid>
    <pname>Папир Сервис</pname>
    <pcategory>bus-stop</pcategory>
    <platitude>43.3215597005</platitude>
    <plongitude>21.8685796</plongitude>
    <pratings>1,1,3,1,4,1,5,3,1,2</pratings>
  </DATA_RECORD>
  <DATA_RECORD>
    <pid>594727774</pid>
    <pname>Landwirtschaftliche Lehranstalt</pname>
    <pcategory>school</pcategory>
    <platitude>49.2009027875</platitude>
    <plongitude>10.6519393584</plongitude>
    <pratings>1,1,3,1,4,1,5,3,1,2</pratings>
  </DATA_RECORD>
  <DATA_RECORD>
    <pid>1154605066</pid>
    <pname>Palm Beach Atlantic University</pname>
    <pcategory>university</pcategory>
    <platitude>26.7037964589</platitude>
    <plongitude>-80.052440738</plongitude>
    <pratings>1,1,3,1,4,1,5,3,1,2</pratings>
  </DATA_RECORD>
  <DATA_RECORD>
    <pid>7260300021</pid>
    <pname>Стадион</pname>
    <pcategory>bus-stop</pcategory>
    <platitude>52.0675555991</platitude>
    <plongitude>113.3505435</plongitude>
    <pratings>1,1,3,1,4,1,5,3,1,2</pratings>
  </DATA_RECORD>
  <DATA_RECORD>
    <pid>422614269</pid>
    <pname>Impianto sportivo San Marcellino</pname>
    <pcategory>sports-centre</pcategory>
    <platitude>43.7528625166</platitude>
    <plongitude>11.2955410531</plongitude>
    <pratings>1,1,3,1,4,1,5,3,1,2</pratings>
  </DATA_RECORD>
  <DATA_RECORD>
    <pid>5456480453</pid>
    <pname>Coop</pname>
    <pcategory>supermarket</pcategory>
    <platitude>46.6849371002</platitude>
    <plongitude>7.8538163</plongitude>
    <pratings>1,1,3,1,4,1,5,3,1,2</pratings>
  </DATA_RECORD>
  <DATA_RECORD>
    <pid>368667888</pid>
    <pname>제이마트</pname>
    <pcategory>supermarket</pcategory>
    <platitude>35.1577359997</platitude>
    <plongitude>129.023677</plongitude>
    <pratings>1,1,3,1,4,1,5,3,1,2</pratings>
  </DATA_RECORD>
  <DATA_RECORD>
    <pid>7807178831</pid>
    <pname>Trinity</pname>
    <pcategory>coffee-shop</pcategory>
    <platitude>45.8205791004</platitude>
    <plongitude>16.0109219</plongitude>
    <pratings>1,1,3,1,4,1,5,3,1,2</pratings>
  </DATA_RECORD>
  <DATA_RECORD>
    <pid>2736527234</pid>
    <pname>Huisartspraktijk M van der Plas</pname>
    <pcategory>doctor</pcategory>
    <platitude>52.2721075991</platitude>
    <plongitude>4.6299619</plongitude>
    <pratings>1,1,3,1,4,1,5,3,1,2</pratings>
  </DATA_RECORD>
  <DATA_RECORD>
    <pid>70647174</pid>
    <pname>Plaza Javier de Viana</pname>
    <pcategory>park</pcategory>
    <platitude>-33.3836164407</platitude>
    <plongitude>-70.5760717336</plongitude>
    <pratings>1,1,3,1,4,1,5,3,1,2</pratings>
  </DATA_RECORD>
  <DATA_RECORD>
    <pid>496732901</pid>
    <pname>Oak Lane St Marys Road</pname>
    <pcategory>bus-stop</pcategory>
    <platitude>53.8087842992</platitude>
    <plongitude>-1.7728005</plongitude>
    <pratings>1,1,3,1,4,1,5,3,1,2</pratings>
  </DATA_RECORD>
  <DATA_RECORD>
    <pid>8667900</pid>
    <pname>Mill Creek Streamway Park</pname>
    <pcategory>park</pcategory>
    <platitude>39.0412873111</platitude>
    <plongitude>-94.8092407235</plongitude>
    <pratings>1,1,3,1,4,1,5,3,1,2</pratings>
  </DATA_RECORD>
  <DATA_RECORD>
    <pid>6128195085</pid>
    <pname>Фарм оригинал эксклюзив</pname>
    <pcategory>pharmacy</pcategory>
    <platitude>41.3012454004</platitude>
    <plongitude>69.209104</plongitude>
    <pratings>1,1,3,1,4,1,5,3,1,2</pratings>
  </DATA_RECORD>
  <DATA_RECORD>
    <pid>5681667969</pid>
    <pname>Dürboslar</pname>
    <pcategory>bus-stop</pcategory>
    <platitude>50.9041254993</platitude>
    <plongitude>6.2571631</plongitude>
    <pratings>1,1,3,1,4,1,5,3,1,2</pratings>
  </DATA_RECORD>
  <DATA_RECORD>
    <pid>10791013882</pid>
    <pname>Пятёрочка</pname>
    <pcategory>supermarket</pcategory>
    <platitude>55.7658196997</platitude>
    <plongitude>37.8648724</plongitude>
    <pratings>1,1,3,1,4,1,5,3,1,2</pratings>
  </DATA_RECORD>
  <DATA_RECORD>
    <pid>396074438</pid>
    <pname>Bulldog Park</pname>
    <pcategory>park</pcategory>
    <platitude>41.6995613451</platitude>
    <plongitude>-88.0804398509</plongitude>
    <pratings>1,1,3,1,4,1,5,3,1,2</pratings>
  </DATA_RECORD>
  <DATA_RECORD>
    <pid>1704191072</pid>
    <pname>Coop ABC</pname>
    <pcategory>convenience-store</pcategory>
    <platitude>46.2749593003</platitude>
    <plongitude>19.8876871</plongitude>
    <pratings>1,1,3,1,4,1,5,3,1,2</pratings>
  </DATA_RECORD>
  <DATA_RECORD>
    <pid>6820457285</pid>
    <pname>Wendy's Kitchen</pname>
    <pcategory>restaurant</pcategory>
    <platitude>-15.7866015004</platitude>
    <plongitude>35.0085831</plongitude>
    <pratings>1,1,3,1,4,1,5,3,1,2</pratings>
  </DATA_RECORD>
  <DATA_RECORD>
    <pid>3679209441</pid>
    <pname>Lipa</pname>
    <pcategory>pub</pcategory>
    <platitude>47.7641287</platitude>
    <plongitude>18.0440168</plongitude>
    <pratings>1,1,3,1,4,1,5,3,1,2</pratings>
  </DATA_RECORD>
  <DATA_RECORD>
    <pid>8982695017</pid>
    <pname>玉兴路万寿路</pname>
    <pcategory>bus-stop</pcategory>
    <platitude>36.6038095998</platitude>
    <plongitude>117.0017123</plongitude>
    <pratings>1,1,3,1,4,1,5,3,1,2</pratings>
  </DATA_RECORD>
  <DATA_RECORD>
    <pid>5232934526</pid>
    <pname>Maxi Kiosko</pname>
    <pcategory>convenience-store</pcategory>
    <platitude>-34.7419211998</platitude>
    <plongitude>-58.2886776</plongitude>
    <pratings>1,1,3,1,4,1,5,3,1,2</pratings>
  </DATA_RECORD>
  <DATA_RECORD>
    <pid>228637720</pid>
    <pname>SD Negeri Sawitan</pname>
    <pcategory>school</pcategory>
    <platitude>-7.5886518955</platitude>
    <plongitude>110.2187379165</plongitude>
    <pratings>1,1,3,1,4,1,5,3,1,2</pratings>
  </DATA_RECORD>
  <DATA_RECORD>
    <pid>487169647</pid>
    <pname>Whitnash Road</pname>
    <pcategory>bus-stop</pcategory>
    <platitude>52.2731141991</platitude>
    <plongitude>-1.5235218</plongitude>
    <pratings>1,1,3,1,4,1,5,3,1,2</pratings>
  </DATA_RECORD>
  <DATA_RECORD>
    <pid>7844131979</pid>
    <pname>Dr. G. Thiagarajan's Memorial Hospital</pname>
    <pcategory>hospital</pcategory>
    <platitude>11.0053399995</platitude>
    <plongitude>76.989401</plongitude>
    <pratings>1,1,3,1,4,1,5,3,1,2</pratings>
  </DATA_RECORD>
  <DATA_RECORD>
    <pid>6507174249</pid>
    <pname>B. W. Williams Drive &amp; Lewis Brown Drive</pname>
    <pcategory>bus-stop</pcategory>
    <platitude>38.1416725</platitude>
    <plongitude>-122.249716</plongitude>
    <pratings>1,1,3,1,4,1,5,3,1,2</pratings>
  </DATA_RECORD>
  <DATA_RECORD>
    <pid>8303359839</pid>
    <pname>Bonnstraße</pname>
    <pcategory>bus-stop</pcategory>
    <platitude>50.9595406993</platitude>
    <plongitude>6.7993018</plongitude>
    <pratings>1,1,3,1,4,1,5,3,1,2</pratings>
  </DATA_RECORD>
  <DATA_RECORD>
    <pid>11396875869</pid>
    <pname>Payuss</pname>
    <pcategory>restaurant</pcategory>
    <platitude>48.8382333997</platitude>
    <plongitude>2.396554</plongitude>
    <pratings>1,1,3,1,4,1,5,3,1,2</pratings>
  </DATA_RECORD>
  <DATA_RECORD>
    <pid>6372385288</pid>
    <pname>Straumbotn</pname>
    <pcategory>bus-stop</pcategory>
    <platitude>66.2953489975</platitude>
    <plongitude>13.729497</plongitude>
    <pratings>1,1,3,1,4,1,5,3,1,2</pratings>
  </DATA_RECORD>
  <DATA_RECORD>
    <pid>502418477</pid>
    <pname>Duke of York</pname>
    <pcategory>bus-stop</pcategory>
    <platitude>52.3419888991</platitude>
    <plongitude>-2.066318</plongitude>
    <pratings>1,1,3,1,4,1,5,3,1,2</pratings>
  </DATA_RECORD>
  <DATA_RECORD>
    <pid>4466657756</pid>
    <pname>Sushi Moto</pname>
    <pcategory>restaurant</pcategory>
    <platitude>-33.5172242996</platitude>
    <plongitude>-70.7555319</plongitude>
    <pratings>1,1,3,1,4,1,5,3,1,2</pratings>
  </DATA_RECORD>
  <DATA_RECORD>
    <pid>475759226</pid>
    <pname>東部3号街区公園</pname>
    <pcategory>park</pcategory>
    <platitude>31.9142669343</platitude>
    <plongitude>131.4501982482</plongitude>
    <pratings>1,1,3,1,4,1,5,3,1,2</pratings>
  </DATA_RECORD>
  <DATA_RECORD>
    <pid>102803659</pid>
    <pname>The Holy Hobo</pname>
    <pcategory>pub</pcategory>
    <platitude>54.9812729994</platitude>
    <plongitude>-1.6059508</plongitude>
    <pratings>1,1,3,1,4,1,5,3,1,2</pratings>
  </DATA_RECORD>
  <DATA_RECORD>
    <pid>3312994971</pid>
    <pname>Star of India</pname>
    <pcategory>restaurant</pcategory>
    <platitude>51.4959393992</platitude>
    <plongitude>-0.3748735</plongitude>
    <pratings>1,1,3,1,4,1,5,3,1,2</pratings>
  </DATA_RECORD>
  <DATA_RECORD>
    <pid>2601743881</pid>
    <pname>Nantizon</pname>
    <pcategory>bus-stop</pcategory>
    <platitude>44.9177258005</platitude>
    <plongitude>5.7808768</plongitude>
    <pratings>1,1,3,1,4,1,5,3,1,2</pratings>
  </DATA_RECORD>
  <DATA_RECORD>
    <pid>7388757858</pid>
    <pname>Holsterhauser Platz</pname>
    <pcategory>bus-stop</pcategory>
    <platitude>51.4375312992</platitude>
    <plongitude>6.9890344</plongitude>
    <pratings>1,1,3,1,4,1,5,3,1,2</pratings>
  </DATA_RECORD>
  <DATA_RECORD>
    <pid>9904546171</pid>
    <pname>Via Light 741</pname>
    <pcategory>bus-stop</pcategory>
    <platitude>-22.8104330001</platitude>
    <plongitude>-43.3936099</plongitude>
    <pratings>1,1,3,1,4,1,5,3,1,2</pratings>
  </DATA_RECORD>
  <DATA_RECORD>
    <pid>601853479</pid>
    <pname>Quadra da Favela do Corujão</pname>
    <pcategory>sports-centre</pcategory>
    <platitude>-23.5658263472</platitude>
    <plongitude>-46.7965423456</plongitude>
    <pratings>1,1,3,1,4,1,5,3,1,2</pratings>
  </DATA_RECORD>
  <DATA_RECORD>
    <pid>7007822447</pid>
    <pname>Dívčí hrady</pname>
    <pcategory>bus-stop</pcategory>
    <platitude>50.0560394994</platitude>
    <plongitude>14.3983114</plongitude>
    <pratings>1,1,3,1,4,1,5,3,1,2</pratings>
  </DATA_RECORD>
  <DATA_RECORD>
    <pid>5310378312</pid>
    <pname>Mühle</pname>
    <pcategory>bus-stop</pcategory>
    <platitude>52.0133331991</platitude>
    <plongitude>7.4118635</plongitude>
    <pratings>1,1,3,1,4,1,5,3,1,2</pratings>
  </DATA_RECORD>
  <DATA_RECORD>
    <pid>496715647</pid>
    <pname>Bradford Road New Street</pname>
    <pcategory>bus-stop</pcategory>
    <platitude>53.8055179992</platitude>
    <plongitude>-1.6738424</plongitude>
    <pratings>1,1,3,1,4,1,5,3,1,2</pratings>
  </DATA_RECORD>
  <DATA_RECORD>
    <pid>1125591047</pid>
    <pname>ข้าวแกงอันดามัน อาหารปักษ์ใต้</pname>
    <pcategory>restaurant</pcategory>
    <platitude>13.8090108299</platitude>
    <plongitude>100.6612242568</plongitude>
    <pratings>1,1,3,1,4,1,5,3,1,2</pratings>
  </DATA_RECORD>
  <DATA_RECORD>
    <pid>23990667</pid>
    <pname>Albert-Liebmann-Schule</pname>
    <pcategory>school</pcategory>
    <platitude>52.4074289921</platitude>
    <plongitude>9.818838939</plongitude>
    <pratings>1,1,3,1,4,1,5,3,1,2</pratings>
  </DATA_RECORD>
  <DATA_RECORD>
    <pid>5989856121</pid>
    <pname>Osteria alle Volte</pname>
    <pcategory>restaurant</pcategory>
    <platitude>46.0634189003</platitude>
    <plongitude>13.2346302</plongitude>
    <pratings>1,1,3,1,4,1,5,3,1,2</pratings>
  </DATA_RECORD>
  <DATA_RECORD>
    <pid>4563891280</pid>
    <pname>Rawicz PKP</pname>
    <pcategory>bus-stop</pcategory>
    <platitude>51.6089563992</platitude>
    <plongitude>16.8405101</plongitude>
    <pratings>1,1,3,1,4,1,5,3,1,2</pratings>
  </DATA_RECORD>
  <DATA_RECORD>
    <pid>1171006097</pid>
    <pname>Escuela De Educación Básica Manuel Antonio Corral Jauregui</pname>
    <pcategory>school</pcategory>
    <platitude>-3.0023479839</platitude>
    <plongitude>-79.0473775987</plongitude>
    <pratings>1,1,3,1,4,1,5,3,1,2</pratings>
  </DATA_RECORD>
  <DATA_RECORD>
    <pid>5593106322</pid>
    <pname>الصيدلية الالمانية 2</pname>
    <pcategory>pharmacy</pcategory>
    <platitude>15.3076665999</platitude>
    <plongitude>44.2367047</plongitude>
    <pratings>1,1,3,1,4,1,5,3,1,2</pratings>
  </DATA_RECORD>
  <DATA_RECORD>
    <pid>3294480079</pid>
    <pname>Campo La Juventud</pname>
    <pcategory>bus-stop</pcategory>
    <platitude>36.6752950998</platitude>
    <plongitude>-6.1410922</plongitude>
    <pratings>1,1,3,1,4,1,5,3,1,2</pratings>
  </DATA_RECORD>
  <DATA_RECORD>
    <pid>3943435327</pid>
    <pname>Centinos Pizza Nærum</pname>
    <pcategory>fast-food</pcategory>
    <platitude>55.8200879997</platitude>
    <plongitude>12.538605</plongitude>
    <pratings>1,1,3,1,4,1,5,3,1,2</pratings>
  </DATA_RECORD>
  <DATA_RECORD>
    <pid>2416410928</pid>
    <pname>Dalmatino</pname>
    <pcategory>restaurant</pcategory>
    <platitude>43.9367279005</platitude>
    <plongitude>15.4429558</plongitude>
    <pratings>1,1,3,1,4,1,5,3,1,2</pratings>
  </DATA_RECORD>
  <DATA_RECORD>
    <pid>10683919937</pid>
    <pname>Центр Хирургии</pname>
    <pcategory>bus-stop</pcategory>
    <platitude>55.7302826997</platitude>
    <plongitude>37.563508</plongitude>
    <pratings>1,1,3,1,4,1,5,3,1,2</pratings>
  </DATA_RECORD>
  <DATA_RECORD>
    <pid>1684274522</pid>
    <pname>Пятью Пять</pname>
    <pcategory>convenience-store</pcategory>
    <platitude>51.6829189991</platitude>
    <plongitude>39.2627588</plongitude>
    <pratings>1,1,3,1,4,1,5,3,1,2</pratings>
  </DATA_RECORD>
  <DATA_RECORD>
    <pid>7195543536</pid>
    <pname>Tim Hortons</pname>
    <pcategory>coffee-shop</pcategory>
    <platitude>43.6572345005</platitude>
    <plongitude>-79.7413003</plongitude>
    <pratings>1,1,3,1,4,1,5,3,1,2</pratings>
  </DATA_RECORD>
  <DATA_RECORD>
    <pid>476903165</pid>
    <pname>LX_NW_P002_GREEN002</pname>
    <pcategory>park</pcategory>
    <platitude>25.7131776754</platitude>
    <plongitude>32.6363532639</plongitude>
    <pratings>1,1,3,1,4,1,5,3,1,2</pratings>
  </DATA_RECORD>
  <DATA_RECORD>
    <pid>526807378</pid>
    <pname>Le Sainte-Foy</pname>
    <pcategory>restaurant</pcategory>
    <platitude>43.5487937005</platitude>
    <plongitude>1.5940427</plongitude>
    <pratings>1,1,3,1,4,1,5,3,1,2</pratings>
  </DATA_RECORD>
  <DATA_RECORD>
    <pid>761954936</pid>
    <pname>Werner-von-Siemens-Gymnasium Berlin</pname>
    <pcategory>school</pcategory>
    <platitude>52.431489661</platitude>
    <plongitude>13.2114357247</plongitude>
    <pratings>1,1,3,1,4,1,5,3,1,2</pratings>
  </DATA_RECORD>
  <DATA_RECORD>
    <pid>1277068814</pid>
    <pname>Jønsrudløkka</pname>
    <pcategory>bus-stop</pcategory>
    <platitude>60.8025920017</platitude>
    <plongitude>11.039806</plongitude>
    <pratings>1,1,3,1,4,1,5,3,1,2</pratings>
  </DATA_RECORD>
  <DATA_RECORD>
    <pid>7920592862</pid>
    <pname>Yonge Street Stop #5781</pname>
    <pcategory>bus-stop</pcategory>
    <platitude>43.9114149005</platitude>
    <plongitude>-79.4465301</plongitude>
    <pratings>1,1,3,1,4,1,5,3,1,2</pratings>
  </DATA_RECORD>
  <DATA_RECORD>
    <pid>5332966934</pid>
    <pname>Alleenstraße/Alter Weg</pname>
    <pcategory>bus-stop</pcategory>
    <platitude>48.9250902997</platitude>
    <plongitude>9.1299607</plongitude>
    <pratings>1,1,3,1,4,1,5,3,1,2</pratings>
  </DATA_RECORD>
  <DATA_RECORD>
    <pid>1432376197</pid>
    <pname>Кольцевая улица</pname>
    <pcategory>bus-stop</pcategory>
    <platitude>54.8109979994</platitude>
    <plongitude>56.1287544</plongitude>
    <pratings>1,1,3,1,4,1,5,3,1,2</pratings>
  </DATA_RECORD>
  <DATA_RECORD>
    <pid>964733693</pid>
    <pname>Athol Elementary School</pname>
    <pcategory>school</pcategory>
    <platitude>47.9451015019</platitude>
    <plongitude>-116.7004015599</plongitude>
    <pratings>1,1,3,1,4,1,5,3,1,2</pratings>
  </DATA_RECORD>
  <DATA_RECORD>
    <pid>5682056653</pid>
    <pname>NG park</pname>
    <pcategory>park</pcategory>
    <platitude>18.5170485003</platitude>
    <plongitude>73.8607572</plongitude>
    <pratings>1,1,3,1,4,1,5,3,1,2</pratings>
  </DATA_RECORD>
  <DATA_RECORD>
    <pid>220099420</pid>
    <pname>Ospedale Evangelico Internazionale</pname>
    <pcategory>hospital</pcategory>
    <platitude>44.4301935472</platitude>
    <plongitude>8.7456521221</plongitude>
    <pratings>1,1,3,1,4,1,5,3,1,2</pratings>
  </DATA_RECORD>
  <DATA_RECORD>
    <pid>6372603966</pid>
    <pname>Kjæråsen</pname>
    <pcategory>bus-stop</pcategory>
    <platitude>58.3141380009</platitude>
    <plongitude>8.539896</plongitude>
    <pratings>1,1,3,1,4,1,5,3,1,2</pratings>
  </DATA_RECORD>
  <DATA_RECORD>
    <pid>414420697</pid>
    <pname>مدرسة التحدي الابتدائية</pname>
    <pcategory>school</pcategory>
    <platitude>30.4833125464</platitude>
    <plongitude>47.7851761742</plongitude>
    <pratings>1,1,3,1,4,1,5,3,1,2</pratings>
  </DATA_RECORD>
  <DATA_RECORD>
    <pid>9898430866</pid>
    <pname>火の見下</pname>
    <pcategory>bus-stop</pcategory>
    <platitude>35.3211990997</platitude>
    <plongitude>139.5276591</plongitude>
    <pratings>1,1,3,1,4,1,5,3,1,2</pratings>
  </DATA_RECORD>
  <DATA_RECORD>
    <pid>3782244057</pid>
    <pname>La Bettola</pname>
    <pcategory>restaurant</pcategory>
    <platitude>36.9268921998</platitude>
    <plongitude>14.7440793</plongitude>
    <pratings>1,1,3,1,4,1,5,3,1,2</pratings>
  </DATA_RECORD>
  <DATA_RECORD>
    <pid>1184051763</pid>
    <pname>Институт</pname>
    <pcategory>bus-stop</pcategory>
    <platitude>56.6629108001</platitude>
    <plongitude>124.7238281</plongitude>
    <pratings>1,1,3,1,4,1,5,3,1,2</pratings>
  </DATA_RECORD>
  <DATA_RECORD>
    <pid>2912513901</pid>
    <pname>Multiaccueil</pname>
    <pcategory>kindergarten</pcategory>
    <platitude>47.2324550001</platitude>
    <plongitude>-1.5559392</plongitude>
    <pratings>1,1,3,1,4,1,5,3,1,2</pratings>
  </DATA_RECORD>
  <DATA_RECORD>
    <pid>199625316</pid>
    <pname>荔景山路遊樂場 Lai King Hill Road Playground</pname>
    <pcategory>park</pcategory>
    <platitude>22.345797557</platitude>
    <plongitude>114.1275482008</plongitude>
    <pratings>1,1,3,1,4,1,5,3,1,2</pratings>
  </DATA_RECORD>
  <DATA_RECORD>
    <pid>1020589101</pid>
    <pname>Platform 22 Cafe</pname>
    <pcategory>coffee-shop</pcategory>
    <platitude>57.1059907003</platitude>
    <plongitude>-2.6213946</plongitude>
    <pratings>1,1,3,1,4,1,5,3,1,2</pratings>
  </DATA_RECORD>
  <DATA_RECORD>
    <pid>9654279963</pid>
    <pname>Nando's</pname>
    <pcategory>restaurant</pcategory>
    <platitude>51.4506389992</platitude>
    <plongitude>0.0566774</plongitude>
    <pratings>1,1,3,1,4,1,5,3,1,2</pratings>
  </DATA_RECORD>
  <DATA_RECORD>
    <pid>330341287</pid>
    <pname>Intermarché</pname>
    <pcategory>supermarket</pcategory>
    <platitude>43.7066243428</platitude>
    <plongitude>4.2693013144</plongitude>
    <pratings>1,1,3,1,4,1,5,3,1,2</pratings>
  </DATA_RECORD>
  <DATA_RECORD>
    <pid>120999723</pid>
    <pname>École maternelle Paul Bert</pname>
    <pcategory>school</pcategory>
    <platitude>48.8153919706</platitude>
    <plongitude>2.4252521953</plongitude>
    <pratings>1,1,3,1,4,1,5,3,1,2</pratings>
  </DATA_RECORD>
  <DATA_RECORD>
    <pid>533855012</pid>
    <pname>Swan Lane/Athol Crescent</pname>
    <pcategory>bus-stop</pcategory>
    <platitude>53.5261097991</platitude>
    <plongitude>-2.5482801</plongitude>
    <pratings>1,1,3,1,4,1,5,3,1,2</pratings>
  </DATA_RECORD>
  <DATA_RECORD>
    <pid>538052310</pid>
    <pname>Praça Isaias Doria</pname>
    <pcategory>park</pcategory>
    <platitude>-22.4101974938</platitude>
    <plongitude>-50.564689724</plongitude>
    <pratings>1,1,3,1,4,1,5,3,1,2</pratings>
  </DATA_RECORD>
  <DATA_RECORD>
    <pid>1332226552</pid>
    <pname>Jean BART</pname>
    <pcategory>bus-stop</pcategory>
    <platitude>46.5574766002</platitude>
    <plongitude>0.333321</plongitude>
    <pratings>1,1,3,1,4,1,5,3,1,2</pratings>
  </DATA_RECORD>
</RECORDS>
